[
  {
    "city": "Dakar", 
    "lat": "14.6928", 
    "lng": "-17.4467", 
    "country": "Senegal", 
    "iso2": "SN", 
    "admin_name": "Dakar", 
    "capital": "primary", 
    "population": "1438725", 
    "population_proper": "1438725"
  }, 
  {
    "city": "Pikine", 
    "lat": "14.7500", 
    "lng": "-17.4000", 
    "country": "Senegal", 
    "iso2": "SN", 
    "admin_name": "Dakar", 
    "capital": "", 
    "population": "1170791", 
    "population_proper": "1170791"
  }, 
  {
    "city": "Touba", 
    "lat": "14.8667", 
    "lng": "-15.8833", 
    "country": "Senegal", 
    "iso2": "SN", 
    "admin_name": "Diourbel", 
    "capital": "", 
    "population": "529176", 
    "population_proper": "529176"
  }, 
  {
    "city": "Thiès", 
    "lat": "14.7833", 
    "lng": "-16.9167", 
    "country": "Senegal", 
    "iso2": "SN", 
    "admin_name": "Thiès", 
    "capital": "admin", 
    "population": "394544", 
    "population_proper": "394544"
  }, 
  {
    "city": "Guédiawaye", 
    "lat": "14.7833", 
    "lng": "-17.4000", 
    "country": "Senegal", 
    "iso2": "SN", 
    "admin_name": "Dakar", 
    "capital": "", 
    "population": "329659", 
    "population_proper": "329659"
  }, 
  {
    "city": "Dagana", 
    "lat": "16.4833", 
    "lng": "-15.6000", 
    "country": "Senegal", 
    "iso2": "SN", 
    "admin_name": "Saint-Louis", 
    "capital": "", 
    "population": "241695", 
    "population_proper": "241695"
  }, 
  {
    "city": "Rufisque", 
    "lat": "14.7167", 
    "lng": "-17.2667", 
    "country": "Senegal", 
    "iso2": "SN", 
    "admin_name": "Dakar", 
    "capital": "", 
    "population": "221066", 
    "population_proper": "221066"
  }, 
  {
    "city": "Ziguinchor", 
    "lat": "12.5833", 
    "lng": "-16.2667", 
    "country": "Senegal", 
    "iso2": "SN", 
    "admin_name": "Ziguinchor", 
    "capital": "admin", 
    "population": "205294", 
    "population_proper": "205294"
  }, 
  {
    "city": "Saint-Louis", 
    "lat": "16.0333", 
    "lng": "-16.5000", 
    "country": "Senegal", 
    "iso2": "SN", 
    "admin_name": "Saint-Louis", 
    "capital": "admin", 
    "population": "176000", 
    "population_proper": "176000"
  }, 
  {
    "city": "Kaolack", 
    "lat": "14.1389", 
    "lng": "-16.0764", 
    "country": "Senegal", 
    "iso2": "SN", 
    "admin_name": "Kaolack", 
    "capital": "admin", 
    "population": "172305", 
    "population_proper": "172305"
  }, 
  {
    "city": "Diourbel", 
    "lat": "14.6550", 
    "lng": "-16.2314", 
    "country": "Senegal", 
    "iso2": "SN", 
    "admin_name": "Diourbel", 
    "capital": "admin", 
    "population": "100445", 
    "population_proper": "100445"
  }, 
  {
    "city": "Louga", 
    "lat": "15.6167", 
    "lng": "-16.2167", 
    "country": "Senegal", 
    "iso2": "SN", 
    "admin_name": "Louga", 
    "capital": "admin", 
    "population": "85075", 
    "population_proper": "82884"
  }, 
  {
    "city": "Tambacounda", 
    "lat": "13.7689", 
    "lng": "-13.6672", 
    "country": "Senegal", 
    "iso2": "SN", 
    "admin_name": "Tambacounda", 
    "capital": "admin", 
    "population": "78800", 
    "population_proper": "78800"
  }, 
  {
    "city": "Mbaké", 
    "lat": "14.7917", 
    "lng": "-15.9083", 
    "country": "Senegal", 
    "iso2": "SN", 
    "admin_name": "Diourbel", 
    "capital": "", 
    "population": "68054", 
    "population_proper": "68054"
  }, 
  {
    "city": "Kolda", 
    "lat": "12.8833", 
    "lng": "-14.9500", 
    "country": "Senegal", 
    "iso2": "SN", 
    "admin_name": "Kolda", 
    "capital": "admin", 
    "population": "62258", 
    "population_proper": "62258"
  }, 
  {
    "city": "Bargny", 
    "lat": "14.6939", 
    "lng": "-17.2336", 
    "country": "Senegal", 
    "iso2": "SN", 
    "admin_name": "Dakar", 
    "capital": "", 
    "population": "51188", 
    "population_proper": "51188"
  }, 
  {
    "city": "Joal-Fadiout", 
    "lat": "14.1667", 
    "lng": "-16.8333", 
    "country": "Senegal", 
    "iso2": "SN", 
    "admin_name": "Thiès", 
    "capital": "", 
    "population": "45903", 
    "population_proper": "45903"
  }, 
  {
    "city": "Kaffrine", 
    "lat": "14.1014", 
    "lng": "-15.5432", 
    "country": "Senegal", 
    "iso2": "SN", 
    "admin_name": "Kaffrine", 
    "capital": "admin", 
    "population": "39357", 
    "population_proper": "39357"
  }, 
  {
    "city": "Sali", 
    "lat": "14.4383", 
    "lng": "-17.0125", 
    "country": "Senegal", 
    "iso2": "SN", 
    "admin_name": "Thiès", 
    "capital": "", 
    "population": "30000", 
    "population_proper": "30000"
  }, 
  {
    "city": "Sébikhotane", 
    "lat": "14.7469", 
    "lng": "-17.1367", 
    "country": "Senegal", 
    "iso2": "SN", 
    "admin_name": "Dakar", 
    "capital": "", 
    "population": "27402", 
    "population_proper": "27402"
  }, 
  {
    "city": "Fatick", 
    "lat": "14.3333", 
    "lng": "-16.4069", 
    "country": "Senegal", 
    "iso2": "SN", 
    "admin_name": "Fatick", 
    "capital": "admin", 
    "population": "24243", 
    "population_proper": "24243"
  }, 
  {
    "city": "Pout", 
    "lat": "14.7739", 
    "lng": "-17.0603", 
    "country": "Senegal", 
    "iso2": "SN", 
    "admin_name": "Thiès", 
    "capital": "", 
    "population": "23728", 
    "population_proper": "23728"
  }, 
  {
    "city": "Kédougou", 
    "lat": "12.5500", 
    "lng": "-12.1833", 
    "country": "Senegal", 
    "iso2": "SN", 
    "admin_name": "Kédougou", 
    "capital": "admin", 
    "population": "18860", 
    "population_proper": "18860"
  }, 
  {
    "city": "Matam", 
    "lat": "15.6167", 
    "lng": "-13.3333", 
    "country": "Senegal", 
    "iso2": "SN", 
    "admin_name": "Matam", 
    "capital": "admin", 
    "population": "17324", 
    "population_proper": "17324"
  }, 
  {
    "city": "Sédhiou", 
    "lat": "12.7000", 
    "lng": "-15.5500", 
    "country": "Senegal", 
    "iso2": "SN", 
    "admin_name": "Sédhiou", 
    "capital": "admin", 
    "population": "", 
    "population_proper": ""
  }
]